aileron, elevator, rudder, flaps, slats, speedbrake, throttle, throttle2, engine-pump, engine-pump2, electric-pump, electric-pump2, external-power, APU-generator, latitude-deg, longitude-deg, altitude-ft, roll-deg, pitch-deg, heading-deg, side-slip-deg, airspeed-kt, glideslope, vertical-speed-fps, airspeed-indicator_indicated-speed-kt, altimeter_indicated-altitude-ft, altimeter_pressure-alt-ft, attitude-indicator_indicated-pitch-deg, attitude-indicator_indicated-roll-deg, attitude-indicator_internal-pitch-deg, attitude-indicator_internal-roll-deg, encoder_indicated-altitude-ft, encoder_pressure-alt-ft, gps_indicated-altitude-ft, gps_indicated-ground-speed-kt, gps_indicated-vertical-speed, indicated-heading-deg, magnetic-compass_indicated-heading-deg, slip-skid-ball_indicated-slip-skid, turn-indicator_indicated-turn-rate, vertical-speed-indicator_indicated-speed-fpm, engine_rpm, 
0, 0, 0, 0, 0, 0, 0, 0, 0, 0, 0, 0, 0, 0, 63.98504, -22.59248, -9999, 0, 0.424, 270.0214, 0, 0, 0, 0, 0, 0, 0, 0, 0, 0, 0, 0, 0, 0, 0, 0, 0, 0, 0, 0, 0, 0, 
0, 0, 0, 0, 0, 0, 0, 0, 0, 0, 0, 0, 0, 0, 63.98504, -22.59248, -9999, 0, 0.424, 270.0214, 0, 0, 0, 0, 0, 389.0888, 1.193444, 12, 40, 0, 0, 0, 0, 0, 0, 0, 283.2325, 0, 0, 0, 0, 0, 
0, 0, 0, 0, 0, 0, 0, 0, 0, 0, 0, 0, 0, 0, 63.99184, -22.60542, -9999, 0, 0.424, 180.0184, 0, 0, 0, 0, 0, 389.0888, 1.193444, 12, 40, 0, 0, 0, 0, 0, 0, 0, 283.2325, 0, 0, 0, 0, 0, 
0, 0, 0, 0, 0, 0, 0, 0, 0, 0, 0, 0, 0, 0, 63.99184, -22.60542, -9999, 0, 0.424, 180.0184, 0, 0, 0, 0, 0, 389.0888, 1.193444, 12, 40, 0, 0, 0, 0, 0, 0, 0, 283.2325, 0, 0, 0, 0, 0, 
0, 0, 0, 0, 0, 0, 0, 0, 0, 0, 0, 0, 0, 0, 63.99184, -22.60542, -9999, 0, 0.424, 180.0184, 0, 0, 0, 0, 0, 389.0888, 1.193444, 12, 40, 0, 0, 0, 0, 0, 0, 0, 283.2325, 0, 0, 0, 0, 0, 
0, 0, 0, 0, 0, 0, 0, 0, 0, 0, 0, 0, 0, 0, 63.99184, -22.60542, -9999, 0, 0.424, 180.0184, 0, 0, 0, 0, 0, 389.0888, 1.193444, 12, 40, 0, 0, 0, 0, 0, 0, 0, 283.2325, 0, 0, 0, 0, 0, 
0, 0, 0, 0, 0, 0, 0, 0, 0, 0, 0, 0, 0, 0, 63.99184, -22.60542, -9999, 0, 0.424, 180.0184, 0, 0, 0, 0, 0, 389.0888, 1.193444, 12, 40, 0, 0, 0, 0, 0, 0, 0, 283.2325, 0, 0, 0, 0, 0, 
0, 0, 0, 0, 0, 0, 0, 0, 0, 0, 0, 0, 0, 0, 63.99184, -22.60542, -9999, 0, 0.424, 180.0184, 0, 0, 0, 0, 0, 389.0888, 1.193444, 12, 40, 0, 0, 0, 0, 0, 0, 0, 283.2325, 0, 0, 0, 0, 0, 
0, 0, 0, 0, 0, 0, 0, 0, 0, 0, 0, 0, 0, 0, 63.99184, -22.60542, -9999, 0, 0.424, 180.0184, 0, 0, 0, 0, 0, 389.0888, 1.193444, 12, 40, 0, 0, 0, 0, 0, 0, 0, 283.2325, 0, 0, 0, 0, 0, 
0, 0, 0, 0, 0, 0, 0, 0, 0, 0, 0, 0, 0, 0, 63.99184, -22.60542, -9999, 0, 0.424, 180.0184, 0, 0, 0, 0, 0, 389.0888, 1.193444, 12, 40, 0, 0, 0, 0, 0, 0, 0, 283.2325, 0, 0, 0, 0, 0, 
0, 0, 0, 0, 0, 0, 0, 0, 0, 0, 0, 0, 0, 0, 63.99184, -22.60542, -9999, 0, 0.424, 180.0184, 0, 0, 0, 0, 0, 389.0888, 1.193444, 12, 40, 0, 0, 0, 0, 0, 0, 0, 283.2325, 0, 0, 0, 0, 0, 
0, 0, 0, 0, 0, 0, 0, 0, 0, 0, 0, 0, 0, 0, 63.99184, -22.60542, -9999, 0, 0.424, 180.0184, 0, 0, 0, 0, 0, 389.0888, 1.193444, 12, 40, 0, 0, 0, 0, 0, 0, 0, 283.2325, 0, 0, 0, 0, 0, 
0, 0, 0, 0, 0, 0, 0, 0, 0, 0, 0, 0, 0, 0, 63.99184, -22.60542, -9999, 0, 0.424, 180.0184, 0, 0, 0, 0, 0, 389.0888, 1.193444, 12, 40, 0, 0, 0, 0, 0, 0, 0, 283.2325, 0, 0, 0, 0, 0, 
0, 0, 0, 0, 0, 0, 0, 0, 0, 0, 0, 0, 0, 0, 63.99184, -22.60542, -9999, 0, 0.424, 180.0184, 0, 0, 0, 0, 0, 389.0888, 1.193444, 12, 40, 0, 0, 0, 0, 0, 0, 0, 283.2325, 0, 0, 0, 0, 0, 
0, 0, 0, 0, 0, 0, 0, 0, 0, 0, 0, 0, 0, 0, 63.99184, -22.60542, -9999, 0, 0.424, 180.0184, 0, 0, 0, 0, 0, 389.0888, 1.193444, 12, 40, 0, 0, 0, 0, 0, 0, 0, 283.2325, 0, 0, 0, 0, 0, 
0, 0, 0, 0, 0, 0, 0, 0, 0, 0, 0, 0, 0, 0, 63.99184, -22.60542, -9999, 0, 0.424, 180.0184, 0, 0, 0, 0, 0, 389.0888, 1.193444, 12, 40, 0, 0, 0, 0, 0, 0, 0, 283.2325, 0, 0, 0, 0, 0, 
0, 0, 0, 0, 0, 0, 0, 0, 0, 0, 0, 0, 0, 0, 63.99184, -22.60542, -9999, 0, 0.424, 180.0184, 0, 0, 0, 0, 0, 389.0888, 1.193444, 12, 40, 0, 0, 0, 0, 0, 0, 0, 283.2325, 0, 0, 0, 0, 0, 
0, 0, 0, 0, 0, 0, 0, 0, 0, 0, 0, 0, 0, 0, 63.99184, -22.60542, -9999, 0, 0.424, 180.0184, 0, 0, 0, 0, 0, 389.0888, 1.193444, 12, 40, 0, 0, 0, 0, 0, 0, 0, 283.2325, 0, 0, 0, 0, 0, 
0, 0, 0, 0, 0, 0, 0, 0, 0, 0, 0, 0, 0, 0, 63.99184, -22.60542, -9999, 0, 0.424, 180.0184, 0, 0, 0, 0, 0, 389.0888, 1.193444, 12, 40, 0, 0, 0, 0, 0, 0, 0, 283.2325, 0, 0, 0, 0, 0, 
0, 0, 0, 0, 0, 0, 0, 0, 0, 0, 0, 0, 0, 0, 63.99184, -22.60542, -9999, 0, 0.424, 180.0184, 0, 0, 0, 0, 0, 389.0888, 1.193444, 12, 40, 0, 0, 0, 0, 0, 0, 0, 283.2325, 0, 0, 0, 0, 0, 
0, 0, 0, 0, 0, 0, 0, 0, 0, 0, 0, 0, 0, 0, 63.99184, -22.60542, -9999, 0, 0.424, 180.0184, 0, 0, 0, 0, 0, 389.0888, 1.193444, 12, 40, 0, 0, 0, 0, 0, 0, 0, 283.2325, 0, 0, 0, 0, 0, 
0, 0, 0, 0, 0, 0, 0, 0, 0, 0, 0, 0, 0, 0, 63.99184, -22.60542, -9999, 0, 0.424, 180.0184, 0, 0, 0, 0, 0, 389.0888, 1.193444, 12, 40, 0, 0, 0, 0, 0, 0, 0, 283.2325, 0, 0, 0, 0, 0, 
0, 0, 0, 0, 0, 0, 0, 0, 0, 0, 0, 0, 0, 0, 63.99184, -22.60542, -9999, 0, 0.424, 180.0184, 0, 0, 0, 0, 0, 389.0888, 1.193444, 12, 40, 0, 0, 0, 0, 0, 0, 0, 283.2325, 0, 0, 0, 0, 0, 
0, 0, 0, 0, 0, 0, 0, 0, 0, 0, 0, 0, 0, 0, 63.99184, -22.60542, -9999, 0, 0.424, 180.0184, 0, 0, 0, 0, 0, 389.0888, 1.193444, 12, 40, 0, 0, 0, 0, 0, 0, 0, 283.2325, 0, 0, 0, 0, 0, 
0, 0, 0, 0, 0, 0, 0, 0, 0, 0, 0, 0, 0, 0, 63.99184, -22.60542, -9999, 0, 0.424, 180.0184, 0, 0, 0, 0, 0, 389.0888, 1.193444, 12, 40, 0, 0, 0, 0, 0, 0, 0, 283.2325, 0, 0, 0, 0, 0, 
0, 0, 0, 0, 0, 0, 0, 0, 0, 0, 0, 0, 0, 0, 63.99184, -22.60542, -9999, 0, 0.424, 180.0184, 0, 0, 0, 0, 0, 389.0888, 1.193444, 12, 40, 0, 0, 0, 0, 0, 0, 0, 283.2325, 0, 0, 0, 0, 0, 
0, 0, 0, 0, 0, 0, 0, 0, 0, 0, 0, 0, 0, 0, 63.99184, -22.60542, -9999, 0, 0.424, 180.0184, 0, 0, 0, 0, 0, 389.0888, 1.193444, 12, 40, 0, 0, 0, 0, 0, 0, 0, 283.2325, 0, 0, 0, 0, 0, 
0, 0, 0, 0, 0, 0, 0, 0, 0, 0, 0, 0, 0, 0, 63.99184, -22.60542, -9999, 0, 0.424, 180.0184, 0, 0, 0, 0, 0, 389.0888, 1.193444, 12, 40, 0, 0, 0, 0, 0, 0, 0, 283.2325, 0, 0, 0, 0, 0, 
0, 0, 0, 0, 0, 0, 0, 0, 0, 0, 0, 0, 0, 0, 63.99184, -22.60542, -9999, 0, 0.424, 180.0184, 0, 0, 0, 0, 0, 389.0888, 1.193444, 12, 40, 0, 0, 0, 0, 0, 0, 0, 283.2325, 0, 0, 0, 0, 0, 
0, 0, 0, 0, 0, 0, 0, 0, 0, 0, 0, 0, 0, 0, 63.99184, -22.60542, -9999, 0, 0.424, 180.0184, 0, 0, 0, 0, 0, 389.0888, 1.193444, 12, 40, 0, 0, 0, 0, 0, 0, 0, 283.2325, 0, 0, 0, 0, 0, 
0, 0, 0, 0, 0, 0, 0, 0, 0, 0, 0, 0, 0, 0, 63.99184, -22.60542, -9999, 0, 0.424, 180.0184, 0, 0, 0, 0, 0, 389.0888, 1.193444, 12, 40, 0, 0, 0, 0, 0, 0, 0, 283.2325, 0, 0, 0, 0, 0, 
0, 0, 0, 0, 0, 0, 0, 0, 0, 0, 0, 0, 0, 0, 63.99184, -22.60542, -9999, 0, 0.424, 180.0184, 0, 0, 0, 0, 0, 389.0888, 1.193444, 12, 40, 0, 0, 0, 0, 0, 0, 0, 283.2325, 0, 0, 0, 0, 0, 
0, 0, 0, 0, 0, 0, 0, 0, 0, 0, 0, 0, 0, 0, 63.99184, -22.60542, -9999, 0, 0.424, 180.0184, 0, 0, 0, 0, 0, 389.0888, 1.193444, 12, 40, 0, 0, 0, 0, 0, 0, 0, 283.2325, 0, 0, 0, 0, 0, 
0, 0, 0, 0, 0, 0, 0, 0, 0, 0, 0, 0, 0, 0, 63.99184, -22.60542, -9999, 0, 0.424, 180.0184, 0, 0, 0, 0, 0, 389.0888, 1.193444, 12, 40, 0, 0, 0, 0, 0, 0, 0, 283.2325, 0, 0, 0, 0, 0, 
0, 0, 0, 0, 0, 0, 0, 0, 0, 0, 0, 0, 0, 0, 63.99184, -22.60542, -9999, 0, 0.424, 180.0184, 0, 0, 0, 0, 0, 389.0888, 1.193444, 12, 40, 0, 0, 0, 0, 0, 0, 0, 283.2325, 0, 0, 0, 0, 0, 
0, 0, 0, 0, 0, 0, 0, 0, 0, 0, 0, 0, 0, 0, 63.99184, -22.60542, -9999, 0, 0.424, 180.0184, 0, 0, 0, 0, 0, 389.0888, 1.193444, 12, 40, 0, 0, 0, 0, 0, 0, 0, 283.2325, 0, 0, 0, 0, 0, 
0, 0, 0, 0, 0, 0, 0, 0, 0, 0, 0, 0, 0, 0, 63.99184, -22.60543, 146.2159, 0.105229, 5.245214, 180.0116, 0, 0, 0, 0, 0, 389.0888, 1.193444, 12, 40, 0, 0, 0, 0, 0, 0, 0, 283.2325, 0, 0, 0, 0, 0, 
0, 0, 0, 0, 0, 0, 0, 0, 0, 0, 0, 0, 0, 0, 63.99184, -22.60543, 146.2157, 0.093601, 5.271746, 180.0107, 89.87057, 3.014619, -0.046912, -2.3E-05, 0, 538.4423, 150.547, 12, 40, 0, 0, 150.0001, 150, 146.2157, 5.2E-05, -0.002013, 283.2325, 344.4524, -0.010979, -0.985256, 3365.829, 0, 
0, 0, 0, 0, 0, 0, 0, 0, 0, 0, 0, 0, 0, 0, 63.99184, -22.60543, 146.2161, 0.09627, 5.242211, 180.0109, 83.89665, 2.735632, 0.124843, 4E-05, 0, 510.1073, 122.212, 12, 40, 0, 0, 120.0001, 120, 146.2161, 0.000109, 0.003019, 283.2325, 304.6458, -0.014634, -1.582221, 1673.464, 0, 
0, 0, 0, 0, 0, 0, 0, 0, 0, 0, 0, 0, 0, 0, 63.99184, -22.60543, 146.2161, 0.099081, 5.24213, 180.0111, 76.41936, 2.495195, -0.092921, -3E-06, 0, 481.766, 93.87067, 12, 40, 0, 0, 90.00014, 90, 146.2161, 8.9E-05, -0.000168, 283.2325, 252.0852, -0.01629, -1.94392, -159.0869, 0, 
0, 0, 0, 0, 0, 0, 0, 0, 0, 0, 0, 0, 0, 0, 63.99184, -22.60543, 146.2161, 0.099206, 5.242162, 180.0111, 75.03645, 2.459739, -0.145044, -1.1E-05, 5.888528, 478.6399, 90.74458, 12, 40, 0, 0, 90.00014, 90, 146.2161, 8.6E-05, -0.00104, 283.2325, 242.9248, -0.016432, -1.988471, -528.6724, 0, 
0, 0, 0, 0, 0, 0, 0, 0, 0, 0, 0, 0, 0, 0, 63.99184, -22.60543, 146.2161, 0.099333, 5.242201, 180.0111, 74.11629, 2.437478, -0.149621, -1.7E-05, 6.882218, 475.9983, 88.10294, 12, 40, 0, 0, 90.00014, 90, 146.2161, 8.5E-05, -0.00104, 283.2325, 236.9814, -0.016508, -2.015496, -689.688, 0, 
0, 0, 0, 0, 0, 0, 0, 0, 0, 0, 0, 0, 0, 0, 63.99184, -22.60543, 146.2161, 0.099469, 5.242248, 180.0111, 73.32456, 2.419137, -0.142188, -1.9E-05, 7.105715, 473.5579, 85.66257, 12, 40, 0, 0, 90.00014, 90, 146.2161, 8.3E-05, -0.001577, 283.2325, 231.971, -0.016583, -2.037246, -800.7228, 0, 
0, 0, 0, 0, 0, 0, 0, 0, 0, 0, 0, 0, 0, 0, 63.99184, -22.60543, 146.2161, 0.099641, 5.242309, 180.0111, 72.44715, 2.399661, -0.140313, -2.1E-05, 7.205441, 470.7747, 82.87938, 12, 40, 0, 0, 90.00014, 90, 146.2161, 8.1E-05, -0.001677, 283.2325, 226.5347, -0.016654, -2.059861, -902.2155, 0, 
0, 0, 0, 0, 0, 0, 0, 0, 0, 0, 0, 0, 0, 0, 63.99184, -22.60543, 146.2161, 0.099845, 5.242386, 180.0112, 71.48058, 2.379204, -0.142572, -2.3E-05, 7.276629, 467.7011, 79.80576, 12, 40, 0, 0, 80.00014, 80, 146.2161, 8E-05, -0.001543, 283.2325, 220.6915, -0.016723, -2.083114, -993.1426, 0, 
0, 0, 0, 0, 0, 0, 0, 0, 0, 0, 0, 0, 0, 0, 63.99184, -22.60543, 146.2161, 0.100025, 5.242456, 180.0112, 70.64973, 2.362428, -0.143096, -2.4E-05, 7.3239, 465.1375, 77.24214, 12, 40, 0, 0, 80.00014, 80, 146.2161, 7.8E-05, -0.001644, 283.2325, 215.7939, -0.016792, -2.101829, -1054.857, 0, 
0, 0, 0, 0, 0, 0, 0, 0, 0, 0, 0, 0, 0, 0, 63.99184, -22.60543, 146.216, 0.100227, 5.242536, 180.0112, 69.72994, 2.344701, -0.142835, -2.4E-05, 7.330574, 462.3043, 74.40894, 12, 40, 0, 0, 80.00014, 80, 146.216, 7.7E-05, -0.00161, 283.2325, 210.5089, -0.016857, -2.121287, -1114.448, 0, 
0, 0, 0, 0, 0, 0, 0, 0, 0, 0, 0, 0, 0, 0, 63.99184, -22.60543, 146.216, 0.100398, 5.242604, 180.0112, 68.95289, 2.330395, -0.139962, -2.4E-05, 7.313295, 459.883, 71.98762, 12, 40, 0, 0, 70.00014, 70, 146.216, 7.5E-05, -0.001811, 283.2325, 206.1575, -0.016898, -2.136774, -1160.938, 0, 
0, 0, 0, 0, 0, 0, 0, 0, 0, 0, 0, 0, 0, 0, 63.99184, -22.60543, 146.216, 0.100619, 5.242692, 180.0112, 67.92854, 2.312445, -0.140036, -2.4E-05, 7.30209, 456.8145, 68.91911, 12, 40, 0, 0, 70.00014, 70, 146.216, 7.4E-05, -0.001845, 283.2325, 200.5812, -0.016958, -2.155965, -1209.999, 0, 
0, 0, 0, 0, 0, 0, 0, 0, 0, 0, 0, 0, 0, 0, 63.99184, -22.60543, 146.216, 0.100838, 5.242781, 180.0112, 66.88842, 2.295245, -0.138458, -2.3E-05, 7.206933, 453.7614, 65.86611, 12, 40, 0, 0, 70.00014, 70, 146.216, 7.2E-05, -0.001811, 283.2325, 195.1062, -0.017039, -2.174141, -1252.006, 0, 
0, 0, 0, 0, 0, 0, 0, 0, 0, 0, 0, 0, 0, 0, 63.99184, -22.60543, 146.216, 0.101052, 5.242867, 180.0113, 65.83291, 2.278812, -0.138692, -2.2E-05, 7.328353, 450.6819, 62.78652, 12, 40, 0, 0, 70.00014, 70, 146.216, 7.1E-05, -0.001811, 283.2325, 189.743, -0.017095, -2.191357, -1290.505, 0, 
0, 0, 0, 0, 0, 0, 0, 0, 0, 0, 0, 0, 0, 0, 63.99184, -22.60543, 146.216, 0.101197, 5.242926, 180.0113, 65.09335, 2.267894, -0.137667, -2.2E-05, 7.314415, 448.5465, 60.65118, 12, 40, 0, 0, 60.00014, 60, 146.216, 7E-05, -0.001744, 283.2325, 186.1009, -0.017132, -2.20274, -1314.724, 0, 
0, 0, 0, 0, 0, 0, 0, 0, 0, 0, 0, 0, 0, 0, 63.99184, -22.60543, 146.216, 0.101387, 5.243002, 180.0113, 64.09631, 2.253929, -0.138419, -2.1E-05, 7.304644, 445.7502, 57.85481, 12, 40, 0, 0, 60.00014, 60, 146.216, 6.8E-05, -0.001543, 283.2325, 181.3412, -0.017182, -2.217267, -1341.859, 0, 
0, 0, 0, 0, 0, 0, 0, 0, 0, 0, 0, 0, 0, 0, 63.99184, -22.60543, 146.216, 0.101572, 5.243076, 180.0113, 63.08712, 2.240654, -0.136591, -2.1E-05, 7.314478, 442.9266, 55.03124, 12, 40, 0, 0, 60.00014, 60, 146.216, 6.7E-05, -0.001442, 283.2325, 176.6983, -0.017232, -2.231084, -1367.579, 0, 
0, 0, 0, 0, 0, 0, 0, 0, 0, 0, 0, 0, 0, 0, 63.99184, -22.60543, 146.216, 0.101752, 5.243148, 180.0113, 62.06617, 2.228083, -0.134457, -2E-05, 7.323031, 440.0959, 52.2006, 12, 40, 0, 0, 50.00014, 50, 146.216, 6.5E-05, -0.001442, 283.2325, 172.179, -0.01728, -2.244226, -1391.235, 0, 
0, 0, 0, 0, 0, 0, 0, 0, 0, 0, 0, 0, 0, 0, 63.99184, -22.60543, 146.216, 0.101928, 5.243218, 180.0113, 61.03393, 2.216226, -0.129553, -1.8E-05, 7.277314, 437.2617, 49.36641, 12, 40, 0, 0, 50.00014, 50, 146.216, 6.4E-05, -0.001543, 283.2325, 167.7901, -0.017326, -2.256726, -1412.93, 0, 
0, 0, 0, 0, 0, 0, 0, 0, 0, 0, 0, 0, 0, 0, 63.99184, -22.60543, 146.216, 0.102098, 5.243285, 180.0114, 59.99089, 2.205096, -0.129202, -1.8E-05, 7.344241, 434.4309, 46.53553, 12, 40, 0, 0, 50.00014, 50, 146.216, 6.3E-05, -0.001241, 283.2325, 163.5374, -0.01737, -2.268615, -1432.639, 0, 
0, 0, 0, 0, 0, 0, 0, 0, 0, 0, 0, 0, 0, 0, 63.99184, -22.60543, 146.216, 0.102263, 5.24335, 180.0114, 58.93758, 2.194704, -0.125658, -1.7E-05, 7.418355, 431.5951, 43.69978, 12, 40, 0, 0, 50.00014, 50, 146.216, 6.2E-05, -0.001208, 283.2325, 159.4268, -0.017413, -2.279922, -1450.832, 0, 
0, 0, 0, 0, 0, 0, 0, 0, 0, 0, 0, 0, 0, 0, 63.99184, -22.60543, 146.216, 0.102423, 5.243412, 180.0114, 57.87456, 2.18506, -0.122035, -1.6E-05, 7.439608, 428.7626, 40.8673, 12, 40, 0, 0, 40.00014, 40, 146.216, 6E-05, -0.001141, 283.2325, 155.4636, -0.017454, -2.290678, -1467.429, 0, 
0, 0, 0, 0, 0, 0, 0, 0, 0, 0, 0, 0, 0, 0, 63.99184, -22.60543, 146.216, 0.102578, 5.243471, 180.0114, 56.80244, 2.176174, -0.115771, -1.4E-05, 7.379069, 425.9335, 38.03814, 12, 40, 0, 0, 40.00014, 40, 146.216, 5.9E-05, -0.001208, 283.2325, 151.6527, -0.017497, -2.300907, -1482.46, 0, 
0, 0, 0, 0, 0, 0, 0, 0, 0, 0, 0, 0, 0, 0, 63.99184, -22.60543, 146.216, 0.102728, 5.243528, 180.0114, 55.72189, 2.168056, -0.112935, -1.4E-05, 7.456202, 423.0961, 35.20078, 12, 40, 0, 0, 40.00014, 40, 146.216, 5.8E-05, -0.001006, 283.2325, 147.9987, -0.017535, -2.310637, -1496.714, 0, 
0, 0, 0, 0, 0, 0, 0, 0, 0, 0, 0, 0, 0, 0, 63.99184, -22.60543, 146.216, 0.102886, 5.243587, 180.0114, 54.54253, 2.160138, -0.10563, -1.2E-05, 7.475029, 419.988, 32.09269, 12, 40, 0, 0, 30.00014, 30, 146.216, 5.7E-05, -0.001006, 283.2325, 144.222, -0.017572, -2.320642, -1512.315, 0, 
0, 0, 0, 0, 0, 0, 0, 0, 0, 0, 0, 0, 0, 0, 63.99184, -22.60543, 146.216, 0.103015, 5.243636, 180.0114, 53.53814, 2.154157, -0.099953, -1.1E-05, 7.406167, 417.4361, 29.54071, 12, 40, 0, 0, 30.00014, 30, 146.216, 5.6E-05, -0.001006, 283.2325, 141.1774, -0.017613, -2.328693, -1521.289, 0, 
0, 0, 0, 0, 0, 0, 0, 0, 0, 0, 0, 0, 0, 0, 63.99184, -22.60543, 146.216, 0.103151, 5.243685, 180.0114, 52.43642, 2.148392, -0.094718, -1E-05, 7.479318, 414.5945, 26.69917, 12, 40, 0, 0, 30.00014, 30, 146.216, 5.5E-05, -0.000805, 283.2325, 138.0172, -0.017647, -2.337065, -1532.714, 0, 
0, 0, 0, 0, 0, 0, 0, 0, 0, 0, 0, 0, 0, 0, 63.99184, -22.60543, 146.216, 0.103283, 5.243733, 180.0115, 51.32914, 2.143425, -0.086262, -9E-06, 7.417704, 411.7539, 23.85855, 12, 40, 0, 0, 30.00014, 30, 146.216, 5.4E-05, -0.000839, 283.2325, 135.0279, -0.017682, -2.345027, -1543.204, 0, 
0, 0, 0, 0, 0, 0, 0, 0, 0, 0, 0, 0, 0, 0, 63.99184, -22.60543, 146.216, 0.10341, 5.243778, 180.0115, 50.21708, 2.139262, -0.078305, -8E-06, 7.420235, 408.9171, 21.02179, 12, 40, 0, 0, 20.00014, 20, 146.216, 5.3E-05, -0.000671, 283.2325, 132.2121, -0.017715, -2.352601, -1552.766, 0, 
0, 0, 0, 0, 0, 0, 0, 0, 0, 0, 0, 0, 0, 0, 63.99184, -22.60543, 146.216, 0.103543, 5.243824, 180.0115, 49.00792, 2.135666, -0.06912, -7E-06, 7.504209, 405.8129, 17.91755, 12, 40, 0, 0, 20.00014, 20, 146.216, 5.1E-05, -0.000604, 283.2325, 129.36, -0.017746, -2.360388, -1563.623, 0, 
0, 0, 0, 0, 0, 0, 0, 0, 0, 0, 0, 0, 0, 0, 63.99184, -22.60543, 146.216, 0.103651, 5.243861, 180.0115, 47.98193, 2.133367, -0.060339, -6E-06, 7.429486, 403.2462, 15.35089, 12, 40, 0, 0, 20.00014, 20, 146.216, 5E-05, -0.000503, 283.2325, 127.1094, -0.017779, -2.366656, -1569.75, 0, 
0, 0, 0, 0, 0, 0, 0, 0, 0, 0, 0, 0, 0, 0, 63.99184, -22.60543, 146.216, 0.103766, 5.243899, 180.0115, 46.86052, 2.131641, -0.050384, -5E-06, 7.502735, 400.4153, 12.51996, 12, 40, 0, 0, 20.00014, 20, 146.216, 4.9E-05, -0.000403, 283.2325, 124.8255, -0.017809, -2.373172, -1577.199, 0, 
0, 0, 0, 0, 0, 0, 0, 0, 0, 0, 0, 0, 0, 0, 63.99184, -22.60543, 146.216, 0.103894, 5.243941, 180.0115, 45.55045, 2.130661, -0.03671, -3E-06, 7.45521, 397.0674, 9.172044, 12, 40, 0, 0, 10.00014, 10, 146.216, 4.8E-05, -0.000403, 283.2325, 122.3882, -0.017849, -2.380373, -1586.889, 0, 
0, 0, 0, 0, 0, 0, 0, 0, 0, 0, 0, 0, 0, 0, 63.99184, -22.60543, 146.216, 0.104, 5.243975, 180.0115, 44.42702, 2.130709, -0.024394, -2E-06, 7.495376, 394.2603, 6.365013, 12, 40, 0, 0, 10.00014, 10, 146.216, 4.7E-05, -0.000302, 283.2325, 120.4945, -0.017878, -2.38622, -1592.202, 0, 
0, 0, 0, 0, 0, 0, 0, 0, 0, 0, 0, 0, 0, 0, 63.99184, -22.60543, 146.216, 0.104102, 5.244006, 180.0115, 43.30404, 2.131575, -0.010568, -1E-06, 7.519809, 391.4353, 3.540003, 12, 40, 0, 0, 10.00014, 10, 146.216, 4.6E-05, -0.000268, 283.2325, 118.7815, -0.017906, -2.39178, -1597.839, 0, 
0, 0, 0, 0, 0, 0, 0, 0, 0, 0, 0, 0, 0, 0, 63.99184, -22.60543, 146.216, 0.104201, 5.244035, 180.0115, 42.18235, 2.13326, 0.00331, 0, 7.469223, 388.6005, 0.705117, 12, 40, 0, 0, 0.000142, 0, 146.216, 4.6E-05, -0.000134, 283.2325, 117.2488, -0.017933, -2.397069, -1603.428, 0, 
0, 0, 0, 0, 0, 0, 0, 0, 0, 0, 0, 0, 0, 0, 63.99184, -22.60543, 146.216, 0.104289, 5.24406, 180.0115, 41.15602, 2.135521, 0.01882, 1E-06, 7.497145, 385.9641, -1.931224, 12, 40, 0, 0, 0.000142, 0, 146.216, 4.5E-05, -6.7E-05, 283.2325, 116.002, -0.01795, -2.401689, -1613.33, 0, 
0, 0, 0, 0, 0, 0, 0, 0, 0, 0, 0, 0, 0, 0, 63.99184, -22.60543, 146.216, 0.104373, 5.244083, 180.0116, 40.13213, 2.138466, 0.035408, 3E-06, 7.476495, 383.58, -4.315322, 12, 40, 0, 0, 0.000142, 0, 146.216, 4.4E-05, 0, 283.2325, 114.9056, -0.017975, -2.406102, -1613.826, 0, 
0, 0, 0, 0, 0, 0, 0, 0, 0, 0, 0, 0, 0, 0, 63.99184, -22.60543, 146.216, 0.104469, 5.244109, 180.0116, 38.92615, 2.142824, 0.054519, 4E-06, 7.548095, 380.6447, -7.250623, 12, 40, 0, 0, 0.000142, 0, 146.216, 4.3E-05, 0.000168, 283.2325, 113.8027, -0.017997, -2.411063, -1619.059, 0, 
0, 0, 0, 0, 0, 0, 0, 0, 0, 0, 0, 0, 0, 0, 63.99184, -22.60543, 146.216, 0.104548, 5.244128, 180.0116, 37.90986, 2.14725, 0.074632, 5E-06, 7.550965, 378.2085, -9.686822, 12, 40, 0, 0, -9.999858, -10, 146.216, 4.2E-05, 0.000101, 283.2325, 113.0312, -0.01802, -2.415056, -1621.291, 0, 
0, 0, 0, 0, 0, 0, 0, 0, 0, 0, 0, 0, 0, 0, 63.99184, -22.60543, 146.216, 0.10463, 5.244148, 180.0116, 36.8063, 2.152847, 0.092971, 6E-06, 7.504838, 375.5074, -12.38798, 12, 40, 0, 0, -9.999858, -10, 146.216, 4.1E-05, 0.000335, 283.2325, 112.3569, -0.018042, -2.419207, -1625.234, 0, 
0, 0, 0, 0, 0, 0, 0, 0, 0, 0, 0, 0, 0, 0, 63.99184, -22.60543, 146.216, 0.104723, 5.244169, 180.0116, 35.52656, 2.160379, 0.124238, 8E-06, 7.502998, 372.3036, -15.59169, 12, 40, 0, 0, -9.999858, -10, 146.216, 4E-05, 0.000268, 283.2325, 111.7882, -0.01807, -2.423794, -1631.547, 0, 
0, 0, 0, 0, 0, 0, 0, 0, 0, 0, 0, 0, 0, 0, 63.99184, -22.60543, 146.216, 0.1048, 5.244184, 180.0116, 34.43711, 2.167688, 0.147058, 9E-06, 7.488922, 369.6352, -18.26015, 12, 40, 0, 0, -19.99986, -20, 146.216, 4E-05, 0.000537, 283.2325, 111.4847, -0.018091, -2.427519, -1633.503, 0, 
0, 0, 0, 0, 0, 0, 0, 0, 0, 0, 0, 0, 0, 0, 63.99184, -22.60543, 146.216, 0.104874, 5.244198, 180.0116, 33.35535, 2.175776, 0.181181, 1E-05, 7.58197, 366.9483, -20.94701, 12, 40, 0, 0, -19.99986, -20, 146.216, 3.9E-05, 0.000403, 283.2325, 111.3483, -0.018112, -2.431061, -1636.089, 0, 
0, 0, 0, 0, 0, 0, 0, 0, 0, 0, 0, 0, 0, 0, 63.99184, -22.60543, 146.216, 0.104945, 5.24421, 180.0116, 32.28194, 2.184633, 0.210653, 1.2E-05, 7.600248, 364.2516, -23.64373, 12, 40, 0, 0, -19.99986, -20, 146.216, 3.8E-05, 0.00047, 283.2325, 111.3757, -0.018131, -2.43443, -1638.891, 0, 
0, 0, 0, 0, 0, 0, 0, 0, 0, 0, 0, 0, 0, 0, 63.99184, -22.60543, 146.216, 0.105014, 5.24422, 180.0116, 31.21752, 2.194252, 0.234156, 1.2E-05, 7.548505, 361.548, -26.34731, 12, 40, 0, 0, -19.99986, -20, 146.216, 3.7E-05, 0.000772, 283.2325, 111.5637, -0.01815, -2.437634, -1641.738, 0, 
0, 0, 0, 0, 0, 0, 0, 0, 0, 0, 0, 0, 0, 0, 63.99184, -22.60543, 146.216, 0.105081, 5.244229, 180.0116, 30.16272, 2.204622, 0.272089, 1.4E-05, 7.603497, 358.8464, -29.04894, 12, 40, 0, 0, -29.99986, -30, 146.216, 3.7E-05, 0.000671, 283.2325, 111.9088, -0.018168, -2.440682, -1644.313, 0, 
0, 0, 0, 0, 0, 0, 0, 0, 0, 0, 0, 0, 0, 0, 63.99184, -22.60543, 146.216, 0.10513, 5.244234, 180.0116, 29.37828, 2.212885, 0.29115, 1.5E-05, 7.637727, 356.7874, -31.10795, 12, 40, 0, 0, -29.99986, -30, 146.216, 3.6E-05, 0.000872, 283.2325, 112.2684, -0.01818, -2.44287, -1647.464, 0, 
0, 0, 0, 0, 0, 0, 0, 0, 0, 0, 0, 0, 0, 0, 63.99184, -22.60543, 146.216, 0.105847, 5.244209, 180.0117, 19.55935, 2.36041, 0.544685, 4E-06, 2.192275, 327.6389, -60.25647, 12, 40, 0, 0, -59.99986, -60, 146.216, 2.9E-05, 0.000268, 283.2325, 124.3842, -0.018361, -2.465385, -1532.532, 0, 
0, 0, 0, 0, 0, 0, 0, 0, 0, 0, 0, 0, 0, 0, 63.99184, -22.60543, 146.216, 0.105869, 5.244211, 180.0117, 18.50023, 2.381816, 0.525561, 1.2E-05, 6.029112, 325.7877, -62.10767, 12, 40, 0, 0, -59.99986, -60, 146.216, 2.9E-05, 0.000537, 283.2325, 126.5557, -0.018368, -2.46735, -1488.696, 0, 
0, 0, 0, 0, 0, 0, 0, 0, 0, 0, 0, 0, 0, 0, 63.99184, -22.60543, 146.216, 0.105903, 5.244216, 180.0117, 17.60767, 2.400802, 0.485853, 1.8E-05, 7.163515, 323.6436, -64.25175, 12, 40, 0, 0, -59.99986, -60, 146.216, 2.8E-05, 0.000805, 283.2325, 128.5192, -0.018375, -2.468946, -1477.96, 0, 
0, 0, 0, 0, 0, 0, 0, 0, 0, 0, 0, 0, 0, 0, 63.99184, -22.60543, 146.216, 0.105953, 5.244223, 180.0117, 16.72928, 2.420362, 0.458593, 2.2E-05, 7.548492, 321.1378, -66.75758, 12, 40, 0, 0, -59.99986, -60, 146.216, 2.8E-05, 0.00104, 283.2325, 130.571, -0.018383, -2.470464, -1483.713, 0, 
0, 0, 0, 0, 0, 0, 0, 0, 0, 0, 0, 0, 0, 0, 63.99184, -22.60543, 146.216, 0.106017, 5.244232, 180.0117, 15.8651, 2.440483, 0.448881, 2.6E-05, 7.685388, 318.5046, -69.39074, 12, 40, 0, 0, -69.99986, -70, 146.216, 2.7E-05, 0.001208, 283.2325, 132.7053, -0.018392, -2.471907, -1494.544, 0, 
0, 0, 0, 0, 0, 0, 0, 0, 0, 0, 0, 0, 0, 0, 63.99184, -22.60543, 146.216, 0.10609, 5.244241, 180.0117, 15.01518, 2.461151, 0.44875, 2.9E-05, 7.739145, 315.8266, -72.06875, 12, 40, 0, 0, -69.99986, -70, 146.216, 2.7E-05, 0.001409, 283.2325, 134.9162, -0.018402, -2.47328, -1506.465, 0, 
0, 0, 0, 0, 0, 0, 0, 0, 0, 0, 0, 0, 0, 0, 63.99184, -22.60543, 146.216, 0.106171, 5.244248, 180.0117, 14.17954, 2.482353, 0.453692, 3.1E-05, 7.764195, 313.1328, -74.76254, 12, 40, 0, 0, -69.99986, -70, 146.216, 2.6E-05, 0.00151, 283.2325, 137.1978, -0.018413, -2.474586, -1518.144, 0, 
0, 0, 0, 0, 0, 0, 0, 0, 0, 0, 0, 0, 0, 0, 63.99184, -22.60543, 146.2161, 0.106257, 5.244254, 180.0117, 13.35818, 2.504074, 0.460902, 3.4E-05, 7.779259, 310.4334, -77.46191, 12, 40, 0, 0, -79.99986, -80, 146.2161, 2.6E-05, 0.001711, 283.2325, 139.5441, -0.018425, -2.475828, -1529.171, 0, 
0, 0, 0, 0, 0, 0, 0, 0, 0, 0, 0, 0, 0, 0, 63.99184, -22.60543, 146.2161, 0.106347, 5.244257, 180.0117, 12.55106, 2.526302, 0.469231, 3.6E-05, 7.79087, 307.7321, -80.16324, 12, 40, 0, 0, -79.99986, -80, 146.2161, 2.5E-05, 0.001744, 283.2325, 141.9494, -0.018437, -2.477009, -1539.451, 0, 
0, 0, 0, 0, 0, 0, 0, 0, 0, 0, 0, 0, 0, 0, 63.99184, -22.60543, 146.2161, 0.106441, 5.244258, 180.0117, 11.75814, 2.549024, 0.477783, 3.8E-05, 7.801317, 305.0301, -82.86527, 12, 40, 0, 0, -79.99986, -80, 146.2161, 2.5E-05, 0.001879, 283.2325, 144.4075, -0.01845, -2.478132, -1548.997, 0, 
0, 0, 0, 0, 0, 0, 0, 0, 0, 0, 0, 0, 0, 0, 63.99184, -22.60543, 146.2161, 0.106554, 5.244255, 180.0117, 10.85091, 2.576139, 0.481446, 4E-05, 7.812682, 301.799, -86.09636, 12, 40, 0, 0, -79.99986, -80, 146.2161, 2.4E-05, 0.002147, 283.2325, 147.3343, -0.018468, -2.479374, -1562.535, 0, 
0, 0, 0, 0, 0, 0, 0, 0, 0, 0, 0, 0, 0, 0, 63.99184, -22.60543, 146.2161, 0.106638, 5.24425, 180.0117, 10.21457, 2.595896, 0.488501, 4.1E-05, 7.690982, 299.5372, -88.35815, 12, 40, 0, 0, -89.99986, -90, 146.2161, 2.4E-05, 0.00208, 283.2325, 149.4589, -0.018476, -2.480218, -1569.454, 0, 
0, 0, 0, 0, 0, 0, 0, 0, 0, 0, 0, 0, 0, 0, 63.99184, -22.60543, 146.2161, 0.106739, 5.244241, 180.0117, 9.463716, 2.62002, 0.500058, 4.3E-05, 7.775911, 296.8919, -91.00345, 12, 40, 0, 0, -89.99986, -90, 146.2161, 2.3E-05, 0.002214, 283.2325, 152.0404, -0.018491, -2.481184, -1574.495, 0, 
0, 0, 0, 0, 0, 0, 0, 0, 0, 0, 0, 0, 0, 0, 63.99184, -22.60543, 146.2161, 0.106841, 5.244228, 180.0118, 8.771157, 2.631282, 0.434717, 3.7E-05, 7.818202, 294.2095, -93.6858, 12, 40, 0, 0, -89.99986, -90, 146.2161, 2.3E-05, 0.002214, 283.2325, 154.6514, -0.018506, -2.482104, -1580.697, 0, 
0, 0, 0, 0, 0, 0, 0, 0, 0, 0, 0, 0, 0, 0, 63.99184, -22.60543, 146.2161, 0.106947, 5.244215, 180.0118, 8.133994, 2.626986, 0.302331, 2.6E-05, 7.831311, 291.5141, -96.3812, 12, 40, 0, 0, -89.99986, -90, 146.2161, 2.2E-05, 0.00161, 283.2325, 157.286, -0.018521, -2.482979, -1586.995, 0, 
0, 0, 0, 0, 0, 0, 0, 0, 0, 0, 0, 0, 0, 0, 63.99184, -22.60543, 146.2161, 0.107058, 5.244203, 180.0118, 7.494792, 2.623016, 0.205361, 1.8E-05, 7.836077, 288.8141, -99.08121, 12, 40, 0, 0, -99.99986, -100, 146.2161, 2.2E-05, 0.001006, 283.2325, 159.9386, -0.018536, -2.48381, -1593.036, 0, 
0, 0, 0, 0, 0, 0, 0, 0, 0, 0, 0, 0, 0, 0, 63.99184, -22.60543, 146.2161, 0.107173, 5.244193, 180.0118, 6.853695, 2.619372, 0.13775, 1.2E-05, 7.83793, 286.1125, -101.7829, 12, 40, 0, 0, -99.99986, -100, 146.2161, 2.1E-05, 0.000704, 283.2325, 162.6036, -0.018552, -2.484601, -1598.721, 0, 
0, 0, 0, 0, 0, 0, 0, 0, 0, 0, 0, 0, 0, 0, 63.99184, -22.60543, 146.2161, 0.10731, 5.244182, 180.0118, 6.103572, 2.615538, 0.084861, 8E-06, 7.838188, 282.8815, -105.0139, 12, 40, 0, 0, -99.99986, -100, 146.2161, 2.1E-05, 0.000335, 283.2325, 165.7211, -0.018574, -2.485476, -1608.063, 0, 
0, 0, 0, 0, 0, 0, 0, 0, 0, 0, 0, 0, 0, 0, 63.99184, -22.60543, 146.2161, 0.107389, 5.244176, 180.0118, 5.673946, 2.613548, 0.064768, 6E-06, 7.77397, 281.1191, -106.7762, 12, 40, 0, 0, -99.99986, -100, 146.2161, 2.1E-05, 0.000268, 283.2325, 167.5034, -0.018584, -2.485953, -1609.617, 0, 
0, 0, 0, 0, 0, 0, 0, 0, 0, 0, 0, 0, 0, 0, 63.99184, -22.60543, 146.2161, 0.107529, 5.244166, 180.0118, 4.920594, 2.610421, 0.040286, 4E-06, 7.753479, 277.9546, -109.9407, 12, 40, 0, 0, -109.9999, -110, 146.2161, 2E-05, 0.000134, 283.2325, 170.6181, -0.018602, -2.486751, -1615.255, 0, 
0, 0, 0, 0, 0, 0, 0, 0, 0, 0, 0, 0, 0, 0, 63.99184, -22.60543, 146.2161, 0.107669, 5.244154, 180.0118, 4.165526, 2.607747, 0.026316, 2E-06, 7.747553, 274.7982, -113.0971, 12, 40, 0, 0, -109.9999, -110, 146.2161, 2E-05, 3.4E-05, 283.2325, 173.7206, -0.018625, -2.487503, -1620.123, 0, 
0, 0, 0, 0, 0, 0, 0, 0, 0, 0, 0, 0, 0, 0, 63.99184, -22.60543, 146.2161, 0.107788, 5.244142, 180.0118, 3.517155, 2.605816, 0.019898, 2E-06, 7.805845, 272.1306, -115.7647, 12, 40, 0, 0, -109.9999, -110, 146.2161, 1.9E-05, 0, 283.2325, 176.3638, -0.018642, -2.488114, -1622.583, 0, 
0, 0, 0, 0, 0, 0, 0.2, 0, 0, 0, 0, 0, 0, 0, 63.99184, -22.60543, 146.2161, 0.107907, 5.244128, 180.0118, 2.867884, 2.604219, 0.017624, 2E-06, 7.828063, 269.4403, -118.455, 12, 40, 0, 0, -119.9999, -120, 146.2161, 1.9E-05, -3.4E-05, 283.2325, 178.987, -0.01866, -2.488694, -1625.781, 0, 
0, 0, 0, 0, 0, 0, 0.2, 0, 0, 0, 0, 0, 0, 0, 63.99184, -22.60543, 146.2161, 0.108006, 5.244114, 180.0119, 2.326266, 2.603144, 0.018077, 2E-06, 7.834492, 142.8562, -120.7817, 12, 40, 0, 0, -119.9999, -120, 146.2161, 1.9E-05, 3.4E-05, 283.2325, 181.1544, -0.018671, -2.489157, -1631.668, 0, 
0, 0, 0, 0, 0, 0, 0.2, 0, 0, 0, 0, 0, 0, 0, 63.99184, -22.60543, 146.2161, 0.108046, 5.244109, 180.0119, 2.109487, 2.602779, 0.017138, 2E-06, 7.76363, 141.9792, -121.6587, 12, 40, 0, 0, -119.9999, -120, 146.2161, 1.8E-05, 3.4E-05, 283.2325, 182.0159, -0.018678, -2.488029, -1631.745, 12.88819, 
0, 0, 0, 0, 0, 0, 0.2, 0, 0, 0, 0, 0, 0, 0, 63.99184, -22.60543, 146.2161, 0.10825, 5.244058, 180.0119, 1.024699, 2.60155, 0.087538, 1E-05, 7.315411, 137.1103, -126.5277, 12, 40, 0, 0, -119.9999, -120, 146.2161, 1.8E-05, 0.00057, 283.2325, 186.2697, -0.018713, -2.45418, -1649.738, 71.54354, 
0, 0, 0, 0, 0, 0, 0.2, 0, 0, 0, 0, 0, 0, 0, 63.99184, -22.60543, 146.2161, 0.108355, 5.243825, 180.0119, 0.26457, 2.601321, 0.106694, 2.8E-05, 7.547798, 134.2151, -129.4228, 12, 40, 0, 0, -129.9999, -130, 146.2161, 1.7E-05, 0.001979, 283.2325, 189.1865, -0.01875, -2.407028, -1641.738, 110.2961, 
0, 0, 0, 0, 0, 0, 0.2, 0, 0, 0, 0, 0, 0, 0, 63.99184, -22.60543, 146.2161, 0.108403, 5.243386, 180.0119, -0.387099, 2.601515, 0.104394, 4.6E-05, 7.736777, 131.6186, -132.0193, 12, 40, 0, 0, -129.9999, -130, 146.2161, 1.7E-05, 0.003422, 283.2325, 191.6409, -0.018778, -2.354499, -1639.951, 141.8435, 
0, 0, 0, 0, 0, 0, 0.2, 0, 0, 0, 0, 0, 0, 0, 63.99184, -22.60543, 146.2161, 0.108406, 5.242688, 180.0119, -1.038608, 2.602051, 0.102128, 6.6E-05, 7.804202, 128.9533, -134.6847, 12, 40, 0, 0, -129.9999, -130, 146.2161, 1.7E-05, 0.004998, 283.2325, 194.0487, -0.018803, -2.293005, -1640.987, 171.7953, 
0, 0, 0, 0, 0, 0, 0.2, 0, 0, 0, 0, 0, 0, 0, 63.99184, -22.60543, 146.2161, 0.108368, 5.241727, 180.0119, -1.689762, 2.602922, 0.100622, 8.5E-05, 7.858003, 126.2442, -137.3937, 11.95363, 39.84544, 0, 0, -129.9999, -130, 146.2161, 1.6E-05, 0.006575, 283.2325, 196.4062, -0.018825, -2.224434, -1643.704, 200.1381, 
0, 0, 0, 0, 0, 0, 0.2, 0, 0, 0, 0, 0, 0, 0, 63.99184, -22.60543, 146.2161, 0.108291, 5.240511, 180.0119, -2.340398, 2.604122, 0.099609, 0.000103, 7.824245, 123.5587, -140.0792, 11.80772, 39.35908, 0, 0, -139.9999, -140, 146.2161, 1.6E-05, 0.008017, 283.2325, 198.7097, -0.018843, -2.150486, -1645.278, 226.8681, 
0, 0, 0, 0, 0, 0, 0.2, 0, 0, 0, 0, 0, 0, 0, 63.99184, -22.60543, 146.2161, 0.108179, 5.239059, 180.0119, -2.990349, 2.605647, 0.098837, 0.00012, 7.83467, 120.8621, -142.7759, 11.61725, 38.72416, 0, 0, -139.9999, -140, 146.2161, 1.6E-05, 0.009326, 283.2325, 200.9557, -0.018857, -2.07268, -1647.186, 252, 
0, 0, 0, 0, 0, 0, 0.2, 0, 0, 0, 0, 0, 0, 0, 63.99184, -22.60543, 146.2162, 0.108035, 5.2374, 180.0119, -3.63945, 2.607493, 0.098346, 0.000134, 7.838445, 118.1614, -145.4765, 11.40818, 38.02725, 0, 0, -139.9999, -140, 146.2162, 1.5E-05, 0.010466, 283.2325, 203.1409, -0.018866, -1.992362, -1649.119, 275.563, 
0, 0, 0, 0, 0, 0, 0.2, 0, 0, 0, 0, 0, 0, 0, 63.99184, -22.60543, 146.2162, 0.107866, 5.235566, 180.0118, -4.287548, 2.609656, 0.097946, 0.000145, 7.869859, 115.4399, -148.198, 11.18261, 37.27535, 0, 0, -149.9999, -150, 146.2162, 1.5E-05, 0.011405, 283.2325, 205.2621, -0.018869, -1.910713, -1651.77, 297.5976, 
0, 0, 0, 0, 0, 0, 0.2, 0, 0, 0, 0, 0, 0, 0, 63.99184, -22.60543, 146.2162, 0.107677, 5.233593, 180.0118, -4.934493, 2.612137, 0.097735, 0.000154, 7.82824, 112.75, -150.8879, 10.9422, 36.47401, 0, 0, -149.9999, -150, 146.2162, 1.5E-05, 0.012143, 283.2325, 207.3165, -0.018868, -1.828762, -1652.974, 318.1539, 
0, 0, 0, 0, 0, 0, 0.2, 0, 0, 0, 0, 0, 0, 0, 63.99184, -22.60543, 146.2162, 0.107472, 5.231518, 180.0118, -5.580135, 2.614934, 0.097595, 0.00016, 7.835804, 110.0517, -153.5862, 10.6889, 35.62967, 0, 0, -149.9999, -150, 146.2162, 1.5E-05, 0.012714, 283.2325, 209.3012, -0.018862, -1.747388, -1654.422, 337.2883, 
0, 0, 0, 0, 0, 0, 0.2, 0, 0, 0, 0, 0, 0, 0, 63.99184, -22.60543, 146.2162, 0.107258, 5.229374, 180.0118, -6.224327, 2.618047, 0.097544, 0.000163, 7.838505, 107.3505, -156.2874, 10.42441, 34.74804, 1E-06, 0, -149.9999, -150, 146.2162, 1.4E-05, 0.012948, 283.2325, 211.2138, -0.018852, -1.667329, -1655.887, 355.0624, 
0, 0, 0, 0, 0, 0, 0.2, 0, 0, 0, 0, 0, 0, 0, 63.99184, -22.60543, 146.2163, 0.107038, 5.227193, 180.0118, -6.866923, 2.621477, 0.097594, 0.000165, 7.839328, 104.6482, -158.9897, 10.15036, 33.83453, 4E-06, 0, -159.9999, -160, 146.2163, 1.4E-05, 0.013083, 283.2324, 213.0518, -0.018838, -1.58919, -1657.292, 371.5411, 
0, 0, 0, 0, 0, 0, 0.2, 0, 0, 0, 0, 0, 0, 0, 63.99184, -22.60543, 146.2163, 0.106856, 5.225368, 180.0117, -7.401091, 2.624577, 0.097709, 0.000165, 7.766473, 102.3407, -161.2972, 9.916263, 33.05418, 1E-05, 0, -159.9999, -160, 146.2163, 1.4E-05, 0.013049, 283.2323, 214.525, -0.018827, -1.52589, -1660.493, 384.332, 
0, 0, 0, 0, 0, 0, 0.2, 0, 0, 0, 0, 0, 0, 0, 63.99184, -22.60543, 146.2163, 0.106602, 5.222828, 180.0117, -8.146739, 2.629288, 0.097948, 0.000163, 7.794135, 99.13643, -164.5015, 9.580522, 31.93498, 2.9E-05, 1E-06, -159.9999, -160, 146.2163, 1.3E-05, 0.012982, 283.2321, 216.4958, -0.018801, -1.440467, -1663.808, 400.8804, 
0, 0, 0, 0, 0, 0, 0.2, 0, 0, 0, 0, 0, 0, 0, 63.99184, -22.60543, 146.2163, 0.106497, 5.221754, 180.0117, -8.465472, 2.631439, 0.098088, 0.000162, 7.737278, 97.74985, -165.8881, 9.434494, 31.44817, 4.4E-05, 1E-06, -159.9999, -160, 146.2163, 1.3E-05, 0.012848, 283.2319, 217.3071, -0.018793, -1.405089, -1665.622, 407.5109, 
0, 0, 0, 0, 0, 0, 0.2, 0, 0, 0, 0, 0, 0, 0, 63.99184, -22.60543, 146.2163, 0.106229, 5.21895, 180.0117, -9.312817, 2.637563, 0.098504, 0.000157, 7.457793, 93.98759, -169.6503, 9.040928, 30.13602, 0.000123, 3E-06, -169.9999, -170, 146.2163, 1.3E-05, 0.012378, 283.2307, 219.3707, -0.018763, -1.314555, -1672.205, 423.9198, 
0, 0, 0, 0, 0, 0, 0.2, 0, 0, 0, 0, 0, 0, 0, 63.99184, -22.60543, 146.2164, 0.106036, 5.21692, 180.0117, -9.945692, 2.642527, 0.098968, 0.000152, 7.648665, 91.47903, -172.1589, 8.740376, 29.13377, 0.000247, 5E-06, -169.9999, -170, 146.2164, 1.3E-05, 0.012009, 283.2289, 220.8215, -0.018739, -1.250344, -1665.024, 435.0966, 
0, 0, 0, 0, 0, 0, 0.2, 0, 0, 0, 0, 0, 0, 0, 63.99184, -22.60543, 146.2164, 0.105856, 5.214969, 180.0116, -10.57611, 2.647806, 0.09965, 0.000147, 7.771597, 88.84452, -174.7934, 8.437853, 28.12461, 0.000474, 1E-05, -169.9999, -170, 146.2164, 1.2E-05, 0.01154, 283.2257, 222.1879, -0.018713, -1.189247, -1663.173, 445.3809, 
0, 0, 0, 0, 0, 0, 0.2, 0, 0, 0, 0, 0, 0, 0, 63.99184, -22.60543, 146.2164, 0.105667, 5.212802, 180.0116, -11.30835, 2.654366, 0.100595, 0.00014, 7.745043, 85.66189, -177.976, 8.084043, 26.94363, 0.000959, 1.9E-05, -179.9999, -180, 146.2164, 1.2E-05, 0.010936, 283.2187, 223.674, -0.018677, -1.121729, -1665.317, 456.3311, 
0, 0, 0, 0, 0, 0, 0.2, 0, 0, 0, 0, 0, 0, 0, 63.99184, -22.60543, 146.2164, 0.105523, 5.211045, 180.0116, -11.93308, 2.66033, 0.101518, 0.000134, 7.795828, 83.00191, -180.636, 7.780729, 25.93019, 0.001681, 3.4E-05, -179.9999, -180, 146.2164, 1.2E-05, 0.010399, 283.2083, 224.8542, -0.018649, -1.066916, -1664.424, 464.8845, 
0, 0, 0, 0, 0, 0, 0.2, 0, 0, 0, 0, 0, 0, 0, 63.99184, -22.60543, 146.2164, 0.105405, 5.209517, 180.0116, -12.50325, 2.666074, 0.102153, 0.000128, 7.786048, 80.56183, -183.0761, 7.503649, 25.00311, 0.002732, 5.5E-05, -179.9999, -180, 146.2164, 1.2E-05, 0.010198, 283.1932, 225.8596, -0.018621, -1.019027, -1663.701, 472.0992, 
0, 0, 0, 0, 0, 0, 0.2, 0, 0, 0, 0, 0, 0, 0, 63.99184, -22.60543, 146.2165, 0.105284, 5.207816, 180.0116, -13.17385, 2.673204, 0.1036, 0.000121, 7.846653, 77.58714, -186.0508, 7.178632, 23.91323, 0.00469, 9.5E-05, -179.9999, -180, 146.2165, 1.1E-05, 0.009527, 283.165, 226.9531, -0.018593, -0.965193, -1666.423, 479.91, 
0, 0, 0, 0, 0, 0, 0.2, 0, 0, 0, 0, 0, 0, 0, 63.99184, -22.60543, 146.2165, 0.105203, 5.206757, 180.0116, -13.58466, 2.67799, 0.1134, 0.000168, 7.810149, 75.80125, -187.8367, 6.977062, 23.23554, 0.006439, 0.00013, -189.9999, -190, 146.2165, 1.1E-05, 0.012378, 283.1398, 227.5749, -0.018606, -0.933489, -1666.254, 522.6359, 
0, 0, 0, 0, 0, 0, 0.2, 0, 0, 0, 0, 0, 0, 0, 63.99184, -22.60543, 146.2165, 0.104747, 5.203321, 180.0115, -14.29847, 2.687495, 0.105877, 0.000359, 7.762513, 72.61992, -191.018, 6.593945, 21.94324, 0.01104, 0.000223, -189.9999, -190, 146.2165, 1.1E-05, 0.027306, 283.0735, 228.569, -0.018685, -0.880506, -1668.017, 601.1248, 
0, 0, 0, 0, 0, 0, 0.2, 0, 0, 0, 0, 0, 0, 0, 63.99184, -22.60543, 146.2166, 0.103935, 5.197834, 180.0115, -14.90527, 2.696114, 0.100392, 0.00053, 7.808518, 69.9453, -193.6926, 6.237915, 20.73519, 0.017465, 0.000352, -189.9999, -190, 146.2166, 3.5E-05, 0.041328, 282.9807, 229.3261, -0.018746, -0.837508, -1667.493, 661.5424, 
0, 0, 0, 0, 0, 0, 0.2, 0, 0, 0, 0, 0, 0, 0, 63.99184, -22.60543, 146.2166, 0.102801, 5.190066, 180.0114, -15.50828, 2.704855, 0.097271, 0.000667, 7.826205, 67.25227, -196.3857, 5.866507, 19.46346, 0.027633, 0.000554, -189.9999, -190, 146.2166, 0.000106, 0.052733, 282.8338, 229.9957, -0.018761, -0.796625, -1667.71, 715.2945, 
0, 0, 0, 0, 0, 0, 0.2, 0, 0, 0, 0, 0, 0, 0, 63.99184, -22.60543, 146.2167, 0.101446, 5.180526, 180.0112, -16.10806, 2.713617, 0.095281, 0.000759, 7.8322, 64.55276, -199.0852, 5.488414, 18.15001, 0.043671, 0.00087, -199.9999, -200, 146.2167, 0.000191, 0.06065, 282.6015, 230.5782, -0.018726, -0.757747, -1668.158, 762.365, 
0, 0, 0, 0, 0, 0, 0.2, 0, 0, 0, 0, 0, 0, 0, 63.99184, -22.60543, 146.2168, 0.099966, 5.169843, 180.0111, -16.70485, 2.722389, 0.09388, 0.000806, 7.834004, 61.85099, -201.7869, 5.112793, 16.81494, 0.068719, 0.001357, -199.9999, -200, 146.2168, 0.000285, 0.064776, 282.2377, 231.0742, -0.018646, -0.720775, -1668.66, 802.9384, 
0, 0, 0, 0, 0, 0, 0.2, 0, 0, 0, 0, 0, 0, 0, 63.99184, -22.60543, 146.2169, 0.098445, 5.15871, 180.011, -17.29549, 2.73169, 0.082978, 0.000799, 7.834373, 59.1484, -204.4895, 4.752732, 15.48712, 0.107226, 0.002095, -199.9999, -200, 146.2169, 0.000383, 0.064272, 281.6767, 231.4844, -0.018527, -0.68561, -1669.155, 837.3373, 
0, 0, 0, 0, 0, 0, 0.2, 0, 0, 0, 0, 0, 0, 0, 63.99184, -22.60543, 146.2171, 0.096934, 5.149384, 180.0108, -17.86323, 2.744287, 0.042835, 0.000683, 7.83514, 56.44551, -207.1924, 4.424339, 14.20123, 0.164926, 0.003187, -199.9999, -200, 146.2171, 0.00052, 0.052397, 280.8331, 231.8097, -0.018286, -0.652176, -1669.624, 865.9737, 
0, 0, 0, 0, 0, 0, 0.2, 0, 0, 0, 0, 0, 0, 0, 63.99184, -22.60543, 146.2171, 0.095538, 5.143006, 180.0106, -18.40171, 2.760025, 0.022241, 0.000611, 7.824395, 53.72871, -209.9092, 4.136312, 12.96239, 0.249022, 0.004756, -209.9999, -210, 146.2171, 0.00076, 0.044045, 279.5988, 232.0512, -0.01792, -0.620366, -1670.601, 889.3123, 
0, 0, 0, 0, 0, 0, 0.2, 0, 0, 0, 0, 0, 0, 0, 63.99184, -22.60543, 146.2172, 0.094266, 5.138975, 180.0104, -18.91838, 2.77845, 0.014176, 0.000615, 7.83061, 51.03457, -212.6034, 3.898368, 11.77404, 0.36824, 0.006951, -209.9999, -210, 146.2172, 0.001158, 0.03747, 277.8411, 232.21, -0.017615, -0.590115, -1670.626, 907.8439, 
0, 0, 0, 0, 0, 0, 0.2, 0, 0, 0, 0, 0, 0, 0, 63.99184, -22.60543, 146.2173, 0.093129, 5.136586, 180.0102, -19.41406, 2.799023, 0.010636, 0.000667, 7.826882, 48.32082, -215.3171, 3.721256, 10.63902, 0.53253, 0.009936, -209.9999, -210, 146.2173, 0.001756, 0.034719, 275.4055, 232.2875, -0.017254, -0.561342, -1671.409, 922.0638, 
0, 0, 0, 0, 0, 0, 0.2, 0, 0, 0, 0, 0, 0, 0, 63.99184, -22.60543, 146.2173, 0.092148, 5.135286, 180.0099, -19.8914, 2.821265, 0.009063, 0.000768, 7.823901, 45.61393, -218.024, 3.615943, 9.559453, 0.752271, 0.01388, -219.9999, -220, 146.2173, 0.002585, 0.033478, 272.124, 232.2851, -0.016821, -0.533973, -1671.87, 932.4581, 
0, 0, 0, 0, 0, 0, 0.2, 0, 0, 0, 0, 0, 0, 0, 63.99184, -22.60543, 146.2174, 0.091332, 5.134675, 180.0096, -20.35378, 2.844755, 0.008207, 0.000891, 7.82557, 42.90945, -220.7285, 3.592265, 8.536999, 1.036845, 0.018931, -219.9999, -220, 146.2174, 0.003668, 0.039382, 267.8328, 232.2045, -0.016236, -0.507949, -1672.202, 939.4929, 
0, 0, 0, 0, 0, 0, 0.2, 0, 0, 0, 0, 0, 0, 0, 63.99184, -22.60543, 146.2174, 0.090686, 5.134459, 180.0093, -20.80317, 2.869094, 0.007797, 0.001042, 7.829028, 40.20581, -223.4321, 3.656731, 7.57289, 1.392418, 0.02518, -219.9999, -220, 146.2174, 0.005017, 0.041227, 262.4004, 232.0473, -0.015508, -0.483198, -1672.474, 943.6074, 
0, 0, 0, 0, 0, 0, 0.2, 0, 0, 0, 0, 0, 0, 0, 63.99184, -22.60543, 146.2175, 0.090207, 5.134452, 180.0089, -21.24225, 2.893949, 0.007378, 0.001176, 7.833168, 37.50246, -226.1355, 3.809656, 6.667956, 1.819053, 0.032616, -219.9999, -220, 146.2175, 0.006639, 0.049445, 255.7675, 231.8153, -0.014728, -0.459657, -1672.71, 945.2098, 
0, 0, 0, 0, 0, 0, 0.2, 0, 0, 0, 0, 0, 0, 0, 63.99184, -22.60543, 146.2176, 0.089876, 5.134535, 180.0085, -21.67349, 2.919038, 0.007234, 0.00134, 7.849883, 34.81299, -228.8249, 4.042062, 5.822628, 2.307595, 0.041072, -229.9999, -230, 146.2176, 0.008531, 0.051592, 247.9949, 231.5106, -0.01393, -0.437267, -1672.382, 944.6759, 
0, 0, 0, 0, 0, 0, 0.2, 0, 0, 0, 0, 0, 0, 0, 63.99184, -22.60543, 146.2177, 0.08968, 5.134602, 180.0081, -22.09868, 2.944115, 0.007182, 0.001513, 7.89291, 32.0951, -231.5428, 4.333393, 5.036944, 2.837368, 0.050194, -229.9999, -230, 146.2177, 0.010688, 0.055349, 239.308, 231.135, -0.013129, -0.415971, -1673.197, 942.347, 
0, 0, 0, 0, 0, 0, 0.2, 0, 0, 0, 0, 0, 0, 0, 63.99184, -22.60543, 146.2178, 0.089621, 5.134624, 180.0076, -22.51985, 2.968988, 0.00707, 0.001666, 7.888309, 29.38229, -234.2556, 4.651541, 4.310601, 3.376195, 0.059445, -229.9999, -230, 146.2178, 0.013098, 0.061521, 230.1203, 230.6909, -0.012336, -0.395714, -1673.774, 938.532, 
0, 0, 0, 0, 0, 0, 0.2, 0, 0, 0, 0, 0, 0, 0, 63.99184, -22.60543, 146.2179, 0.089679, 5.134563, 180.0072, -22.93819, 2.993492, 0.007033, 0.001825, 7.856484, 26.69964, -236.9383, 4.956713, 3.643052, 3.884249, 0.068171, -229.9999, -230, 146.2179, 0.015746, 0.068901, 221.0116, 230.1804, -0.011569, -0.376447, -1673.095, 933.5077, 
0, 0, 0, 0, 0, 0, 0.2, 0, 0, 0, 0, 0, 0, 0, 63.99184, -22.60543, 146.218, 0.089833, 5.134408, 180.0067, -23.35531, 3.01751, 0.006991, 0.001972, 7.87276, 24.00366, -239.6343, 5.209507, 3.033642, 4.322135, 0.075734, -239.9999, -240, 146.218, 0.018616, 0.072055, 212.6437, 229.6058, -0.010841, -0.358122, -1672.968, 927.5204, 
0, 0, 0, 0, 0, 0, 0.2, 0, 0, 0, 0, 0, 0, 0, 63.99184, -22.60543, 146.2181, 0.090077, 5.134152, 180.0062, -23.77206, 3.040945, 0.006974, 0.002116, 7.868574, 21.28919, -242.3487, 5.381415, 2.48181, 4.661376, 0.081682, -239.9999, -240, 146.2181, 0.021686, 0.077757, 205.6171, 228.9695, -0.01016, -0.340698, -1673.564, 920.7883, 
0, 0, 0, 0, 0, 0, 0.2, 0, 0, 0, 0, 0, 0, 0, 63.99184, -22.60543, 146.2183, 0.090392, 5.133806, 180.0057, -24.18939, 3.063586, 0.006948, 0.002246, 5.437839, 19.8221, -243.8158, 5.463358, 1.98726, 4.892946, 0.085888, -239.9999, -240, 146.2183, 0.024937, 0.085036, 200.3108, 228.2741, -0.009529, -0.324131, -1624.604, 913.5098, 
0, 0, 0, 0, 0, 0, 0.2, 0, 0, 0, 0, 0, 0, 0, 63.99184, -22.60543, 146.2184, 0.090734, 5.133414, 180.0051, -24.56895, 3.083624, 0.006925, 0.002354, 4.013977, 19.32627, -244.3117, 5.469419, 1.584231, 5.020666, 0.088387, -239.9999, -240, 146.2184, 0.028057, 0.085473, 197.0065, 227.5869, -0.008943, -0.309659, -1546.08, 906.5049, 
0, 0, 0, 0, 0, 0, 0.2, 0, 0, 0, 0, 0, 0, 0, 63.99184, -22.60543, 146.2186, 0.091174, 5.132874, 180.0044, -25.02789, 3.106738, 0.006865, 0.002457, 3.22932, 19.11071, -244.5272, 5.419658, 1.170088, 5.095674, 0.090138, -239.9999, -240, 146.2186, 0.031892, 0.095368, 194.7409, 226.716, -0.008403, -0.293402, -1438.145, 897.9724, 
0, 0, 0, 0, 0, 0, 0.2, 0, 0, 0, 0, 0, 0, 0, 63.99184, -22.60543, 146.2187, 0.091589, 5.132364, 180.0038, -25.41079, 3.125447, 0.006915, 0.00257, 2.961627, 19.04236, -244.5956, 5.355162, 0.872436, 5.120737, 0.091021, -239.9999, -240, 146.2187, 0.035243, 0.091142, 193.8109, 225.932, -0.00791, -0.280317, -1341.901, 890.6492, 
0, 0, 0, 0, 0, 0, 0.2, 0, 0, 0, 0, 0, 0, 0, 63.99184, -22.60543, 146.2189, 0.092064, 5.131769, 180.0031, -25.83495, 3.145277, 0.006922, 0.002665, 2.848858, 19.00918, -244.6288, 5.282816, 0.602891, 5.129461, 0.091705, -239.9999, -240, 146.2189, 0.038989, 0.096274, 193.3875, 225.0299, -0.007462, -0.266717, -1234.997, 882.6547, 
0, 0, 0, 0, 0, 0, 0.2, 0, 0, 0, 0, 0, 0, 0, 63.99183, -22.60543, 146.219, 0.0926, 5.131098, 180.0024, -26.30117, 3.16608, 0.0069, 0.002743, 2.809323, 18.99058, -244.6474, 5.216043, 0.375671, 5.131044, 0.092339, -239.9999, -240, 146.219, 0.043128, 0.103151, 193.2476, 224.0008, -0.007052, -0.252737, -1118.321, 874.0899, 
0, 0, 0, 0, 0, 0, 0.2, 0, 0, 0, 0, 0, 0, 0, 63.99183, -22.60543, 146.2192, 0.093065, 5.130507, 180.0017, -26.69087, 3.182876, 0.006927, 0.002818, 2.798381, 18.98007, -244.6579, 5.173602, 0.235776, 5.130724, 0.09285, -239.9999, -240, 146.2192, 0.046678, 0.101406, 193.2196, 223.0903, -0.006694, -0.241485, -1019.309, 866.9904, 
0, 0, 0, 0, 0, 0, 0.2, 0, 0, 0, 0, 0, 0, 0, 63.99183, -22.60543, 146.2194, 0.093605, 5.129799, 180.001, -27.16237, 3.202267, 0.006883, 0.002864, 2.795437, 18.96936, -244.6686, 5.141572, 0.131903, 5.130029, 0.093423, -239.9999, -240, 146.2194, 0.050909, 0.107679, 193.213, 221.9706, -0.006373, -0.228841, -902.196, 858.8445, 
-0.007828, -0.031754, 0, 0, 0, 0, 0.059525, 0, 0, 0, 0, 0, 0, 0, 63.99183, -22.60543, 146.2196, 0.094166, 5.129895, 180.0003, -27.60969, 3.217837, 0.006612, 0.002777, 2.793679, 18.9603, -244.6776, 5.130071, 0.094832, 5.129816, 0.093982, -239.9999, -240, 146.2196, 0.054816, 0.102513, 193.2117, 220.898, -0.006068, -0.217757, -794.0411, 819.7123, 
-0.007828, -0.031754, 0, 0, 0, 0, 0.142855, 0, 0, 0, 0, 0, 0, 0, 63.99183, -22.60543, 146.2197, 0.094991, 5.129937, 179.9996, -27.74974, 3.219979, 0.006646, 0.002772, 2.789837, 18.95158, -244.6864, 5.129969, 0.09477, 5.129969, 0.09477, -239.9999, -240, 146.2197, 0.058649, 0.102413, 193.2109, 219.7909, -0.005861, -0.207193, -685.8663, 797.2853, 
-0.007828, -0.031754, 0, 0, 0, 0, 0.226184, 0, 0, 0, 0, 0, 0, 0, 63.99183, -22.60543, 146.2199, 0.095884, 5.129482, 179.9991, -27.77293, 3.217442, 0.006701, 0.002764, 2.785441, 18.94333, -244.6946, 5.129585, 0.095702, 5.129585, 0.095702, -239.9999, -240, 146.2199, 0.062358, 0.10352, 193.2103, 218.6521, -0.005813, -0.197139, -577.6567, 791.4719, 
-0.007828, -0.031754, 0, 0, 0, 0, 0.246021, 0, 0, 0, 0, 0, 0, 0, 63.99183, -22.60543, 146.2201, 0.096646, 5.12893, 179.9985, -27.80134, 3.214389, 0.006742, 0.002742, 2.782051, 18.9352, -244.7027, 5.129038, 0.096505, 5.129038, 0.096505, -239.9999, -240, 146.2201, 0.065932, 0.099763, 193.2098, 217.4845, -0.005837, -0.187576, -469.4464, 786.5851, 
-0.007828, -0.031754, 0, 0, 0, 0, 0.269841, 0, 0, 0, 0, 0, 0, 0, 63.99183, -22.60543, 146.2202, 0.097256, 5.128382, 179.998, -27.83365, 3.210934, 0.006758, 0.002705, 2.777578, 18.92715, -244.7108, 5.128487, 0.097144, 5.128487, 0.097144, -239.9999, -240, 146.2202, 0.069364, 0.101943, 193.2092, 216.291, -0.005888, -0.178485, -361.2448, 783.1035, 
-0.007828, -0.031754, 0, 0, 0, 0, 0.293645, 0, 0, 0, 0, 0, 0, 0, 63.99183, -22.60543, 146.2204, 0.097731, 5.127878, 179.9974, -27.86835, 3.207216, 0.006728, 0.002646, 2.773748, 18.91908, -244.7188, 5.127974, 0.097643, 5.127974, 0.097643, -239.9999, -240, 146.2204, 0.072648, 0.098387, 193.2086, 215.0745, -0.005958, -0.169841, -253.0903, 781.1824, 
-0.007828, -0.031754, 0, 0, 0, 0, 0.309514, 0, 0, 0, 0, 0, 0, 0, 63.99183, -22.60543, 146.2205, 0.098065, 5.127492, 179.9969, -27.89809, 3.203622, 0.006799, 0.002629, 2.768959, 18.9118, -244.7261, 5.127571, 0.097994, 5.127571, 0.097994, -239.9999, -240, 146.2205, 0.075528, 0.092886, 193.2081, 213.9416, -0.006047, -0.162289, -153.979, 780.8849, 
-0.007828, -0.031754, 0, 0, 0, 0, 0.309514, 0, 0, 0, 0, 0, 0, 0, 63.99183, -22.60543, 146.2207, 0.098326, 5.127165, 179.9964, -27.93347, 3.199843, 0.006763, 0.002567, 2.764575, 18.90379, -244.7341, 5.127223, 0.098274, 5.127223, 0.098274, -239.9999, -240, 146.2207, 0.07853, 0.094328, 193.2076, 212.6891, -0.006135, -0.154439, -46.08632, 782.1813, 
-0.007828, -0.031754, 0, 0, 0, 0, 0.309514, 0, 0, 0, 0, 0, 0, 0, 63.99183, -22.60543, 146.2208, 0.098488, 5.126966, 179.9958, -27.96692, 3.196256, 0.006785, 0.00253, 2.760514, 18.89574, -244.7422, 5.126998, 0.098454, 5.126998, 0.098454, -239.9999, -240, 146.2208, 0.081391, 0.091779, 193.2071, 211.4218, -0.006221, -0.146976, -10.44242, 784.9844, 
-0.007828, -0.031754, 0, 0, 0, 0, 0.309514, 0, 0, 0, 0, 0, 0, 0, 63.99183, -22.60543, 146.221, 0.098573, 5.126894, 179.9953, -28.00272, 3.192833, 0.006748, 0.002472, 2.757128, 18.88693, -244.751, 5.126899, 0.09856, 5.126899, 0.09856, -239.9999, -240, 146.221, 0.084341, 0.093389, 193.2065, 210.0356, -0.006304, -0.139304, -14.45473, 789.4236, 
-0.007828, -0.031754, 0, 0, 0, 0, 0.309514, 0, 0, 0, 0, 0, 0, 0, 63.99183, -22.60543, 146.2212, 0.098577, 5.126966, 179.9947, -28.02857, 3.190051, 0.006763, 0.002442, 2.753425, 18.87892, -244.759, 5.126945, 0.098578, 5.126945, 0.098578, -239.9999, -240, 146.2212, 0.086939, 0.092047, 193.2059, 208.7466, -0.006383, -0.132584, -14.17395, 794.5636, 
-0.007828, -0.031754, 0, 0, 0, 0, 0.317449, 0, 0, 0, 0, 0, 0, 0, 63.99183, -22.60543, 146.2213, 0.098526, 5.12714, 179.9942, -28.04475, 3.187876, 0.006823, 0.002437, 2.751254, 18.87164, -244.7663, 5.1271, 0.098534, 5.1271, 0.098534, -239.9999, -240, 146.2213, 0.089227, 0.087418, 193.2054, 207.5596, -0.006445, -0.126713, -10.63678, 799.9715, 
-0.007828, -0.031754, 0, 0, 0, 0, 0.35317, 0, 0, 0, 0, 0, 0, 0, 63.99183, -22.60543, 146.2215, 0.098391, 5.127469, 179.9936, -28.06423, 3.186161, 0.006829, 0.002417, 2.748835, 18.86285, -244.7751, 5.127409, 0.098414, 5.127409, 0.098414, -239.9999, -240, 146.2215, 0.091831, 0.087686, 193.2049, 206.153, -0.006489, -0.12012, -14.24425, 807.1767, 
-0.007828, -0.031754, 0, 0, 0, 0, 0.392844, 0, 0, 0, 0, 0, 0, 0, 63.99183, -22.60543, 146.2216, 0.098236, 5.127841, 179.9931, -28.06889, 3.185175, 0.006836, 0.002409, 2.747467, 18.8556, -244.7823, 5.127766, 0.098263, 5.127766, 0.098263, -239.9999, -240, 146.2216, 0.093964, 0.084332, 193.2043, 204.9619, -0.006516, -0.114813, -10.31526, 814.1709, 
-0.007828, -0.031754, 0, 0, 0, 0, 0.412695, 0, 0, 0, 0, 0, 0, 0, 63.99183, -22.60543, 146.2217, 0.098016, 5.128355, 179.9925, -28.06977, 3.184983, 0.006802, 0.002396, 2.747115, 18.84752, -244.7904, 5.128262, 0.09805, 5.128262, 0.09805, -239.9999, -240, 146.2217, 0.096237, 0.087519, 193.2038, 203.664, -0.006524, -0.1093, -10.53219, 823.2224, 
-0.007828, -0.031754, 0, 0, 0, 0, 0.4365, 0, 0, 0, 0, 0, 0, 0, 63.99183, -22.60543, 146.2219, 0.097744, 5.128985, 179.9919, -28.06122, 3.185775, 0.006826, 0.002415, 2.747792, 18.83946, -244.7985, 5.128874, 0.097787, 5.128874, 0.097787, -239.9999, -240, 146.2219, 0.098473, 0.086076, 193.2032, 202.3702, -0.006507, -0.104062, -10.51087, 833.9494, 
-0.007828, -0.031754, 0, 0, 0, 0, 0.460304, 0, 0, 0, 0, 0, 0, 0, 63.99183, -22.60543, 146.222, 0.09738, 5.129823, 179.9913, -28.04264, 3.188065, 0.006819, 0.002442, 2.750689, 18.83065, -244.8073, 5.129688, 0.097437, 5.129688, 0.097437, -239.9999, -240, 146.222, 0.100882, 0.091645, 193.2025, 200.9761, -0.006461, -0.098684, -14.36567, 847.5837, 
-0.007828, -0.031754, 0, 0, 0, 0, 0.484123, 0, 0, 0, 0, 0, 0, 0, 63.99183, -22.60543, 146.2222, 0.097021, 5.130681, 179.9907, -28.00876, 3.191087, 0.006844, 0.002493, 2.753372, 18.82338, -244.8146, 5.130526, 0.097081, 5.130526, 0.097081, -239.9999, -240, 146.2222, 0.102937, 0.089599, 193.2019, 199.8048, -0.006375, -0.09436, -10.40524, 860.7513, 
-0.007828, -0.031754, 0, 0, 0, 0, 0.496025, 0, 0, 0, 0, 0, 0, 0, 63.99183, -22.60543, 146.2223, 0.096509, 5.131883, 179.9899, -27.9598, 3.196612, 0.00683, 0.00256, 2.759617, 18.81461, -244.8233, 5.131704, 0.096583, 5.131704, 0.096583, -239.9999, -240, 146.2223, 0.105423, 0.094597, 193.2012, 198.4329, -0.006241, -0.089515, -14.17071, 878.2724, 
-0.007828, -0.031754, 0, 0, 0, 0, 0.50782, 0, 0, 0, 0, 0, 0, 0, 63.99183, -22.60543, 146.2225, 0.096008, 5.133071, 179.9892, -27.8969, 3.202656, 0.006873, 0.002658, 2.766229, 18.80737, -244.8306, 5.132872, 0.096086, 5.132872, 0.096086, -239.9999, -240, 146.2225, 0.107606, 0.093322, 193.2005, 197.2847, -0.006055, -0.085624, -10.25892, 881.4838, 
-0.007828, -0.031754, 0, 0, 0, 0, 0.515633, 0, 0, 0, 0, 0, 0, 0, 63.99183, -22.60543, 146.2226, 0.095631, 5.1339, 179.9884, -27.85928, 3.205991, 0.006733, 0.002649, 2.771131, 18.79931, -244.8386, 5.13384, 0.095655, 5.13384, 0.095655, -239.9999, -240, 146.2226, 0.110064, 0.092047, 193.1997, 196.0472, -0.005732, -0.081568, -10.4705, 832.7457, 
-0.007828, -0.031754, 0, 0, 0, 0, 0.523445, 0, 0, 0, 0, 0, 0, 0, 63.99183, -22.60543, 146.2228, 0.095815, 5.133419, 179.9878, -27.86054, 3.205215, 0.006761, 0.002653, 2.771052, 18.79128, -244.8466, 5.133543, 0.095758, 5.133543, 0.095758, -239.9999, -240, 146.2228, 0.112503, 0.094496, 193.199, 194.8278, -0.005532, -0.077678, -10.43772, 801.1105, 
-0.007828, -0.031754, 0, 0, 0, 0, 0.523445, 0, 0, 0, 0, 0, 0, 0, 63.99183, -22.60543, 146.223, 0.096286, 5.132345, 179.9872, -27.86626, 3.205035, 0.006876, 0.002695, 2.77057, 18.78253, -244.8554, 5.132464, 0.096229, 5.132464, 0.096229, -239.9999, -240, 146.223, 0.115067, 0.102782, 193.1984, 193.5293, -0.005559, -0.073669, -14.14547, 834.9177, 
-0.007828, -0.031754, 0, 0, 0, 0, 0.531258, 0, 0, 0, 0, 0, 0, 0, 63.99183, -22.60543, 146.2231, 0.096404, 5.132186, 179.9865, -27.83903, 3.20769, 0.00696, 0.002765, 2.773387, 18.77527, -244.8627, 5.132173, 0.096396, 5.132173, 0.096396, -239.9999, -240, 146.2231, 0.117221, 0.097414, 193.1978, 192.4509, -0.005599, -0.070462, -10.57595, 864.2944, 
-0.007828, -0.031754, 0, 0, 0, 0, 0.531258, 0, 0, 0, 0, 0, 0, 0, 63.99183, -22.60543, 146.2233, 0.096081, 5.133028, 179.9857, -27.77996, 3.21473, 0.006887, 0.002827, 2.780319, 18.76651, -244.8714, 5.132868, 0.096143, 5.132868, 0.096143, -239.9999, -240, 146.2233, 0.119832, 0.10466, 193.197, 191.2023, -0.005539, -0.066891, -14.17799, 899.3886, 
-0.007828, -0.031754, 0, 0, 0, 0, 0.531258, 0, 0, 0, 0, 0, 0, 0, 63.99183, -22.60543, 146.2235, 0.095493, 5.13446, 179.9848, -27.69119, 3.223663, 0.006931, 0.002966, 2.790291, 18.75926, -244.8787, 5.134214, 0.095588, 5.134214, 0.095588, -239.9999, -240, 146.2235, 0.122164, 0.103419, 193.1961, 190.1695, -0.005318, -0.064041, -10.46956, 928.9161, 
-0.007828, -0.031754, 0, 0, 0, 0, 0.539071, 0, 0, 0, 0, 0, 0, 0, 63.99183, -22.60543, 146.2237, 0.094592, 5.136605, 179.9838, -27.56475, 3.236931, 0.006915, 0.003136, 2.804927, 18.75125, -244.8867, 5.136297, 0.094712, 5.136297, 0.094712, -239.9999, -240, 146.2237, 0.124912, 0.10778, 193.1951, 189.0691, -0.004945, -0.061113, -10.64192, 960.5457, 
-0.007828, -0.031754, 0, 0, 0, 0, 0.539071, 0, 0, 0, 0, 0, 0, 0, 63.99183, -22.60543, 146.2239, 0.093366, 5.139443, 179.9823, -27.40385, 3.255817, 0.006864, 0.003356, 2.825458, 18.74246, -244.8955, 5.139097, 0.09352, 5.139097, 0.09352, -239.9999, -240, 146.2239, 0.128214, 0.122875, 193.1937, 187.9099, -0.004649, -0.058154, -14.30008, 993.8529, 
-0.007828, -0.031754, 0, 0, 0, 0, 0.539071, 0, 0, 0, 0, 0, 0, 0, 63.99183, -22.60543, 146.2241, 0.092229, 5.14215, 179.9809, -27.22177, 3.27466, 0.006915, 0.003633, 2.845917, 18.73524, -244.9027, 5.141785, 0.092375, 5.141785, 0.092375, -239.9999, -240, 146.2241, 0.131342, 0.127739, 193.1923, 186.9572, -0.003764, -0.055805, -10.25382, 1020.963, 
-0.007828, -0.031754, 0, 0, 0, 0, 0.539071, 0, 0, 0, 0, 0, 0, 0, 63.99183, -22.60543, 146.2243, 0.090882, 5.145325, 179.9791, -27.00359, 3.298965, 0.006928, 0.003961, 2.872938, 18.72728, -244.9107, 5.144953, 0.09103, 5.144953, 0.09103, -239.9999, -240, 146.2243, 0.135175, 0.139782, 193.1905, 185.9486, -0.002628, -0.053412, -10.23515, 1049.167, 
-0.007828, -0.031754, 0, 0, 0, 0, 0.546883, 0, 0, 0, 0, 0, 0, 0, 63.99183, -22.60543, 146.2246, 0.089345, 5.148931, 179.9768, -26.74429, 3.329547, 0.006891, 0.004337, 2.907007, 18.71861, -244.9193, 5.148562, 0.089505, 5.148562, 0.089505, -239.9999, -240, 146.2246, 0.139902, 0.160915, 193.1882, 184.8938, -0.001335, -0.051, -13.94947, 1077.893, 
-0.007828, -0.031754, 0, 0, 0, 0, 0.558602, 0, 0, 0, 0, 0, 0, 0, 63.99183, -22.60543, 146.2248, 0.088046, 5.152038, 179.9746, -26.48591, 3.358114, 0.00695, 0.004754, 2.938826, 18.71142, -244.9265, 5.151676, 0.088189, 5.151676, 0.088189, -239.9999, -240, 146.2248, 0.14443, 0.165913, 193.1861, 184.0331, 2.4E-05, -0.049103, -10.07623, 1100.719, 
-0.007828, -0.031754, 0, 0, 0, 0, 0.58204, 0, 0, 0, 0, 0, 0, 0, 63.99183, -22.60543, 146.2251, 0.08648, 5.155712, 179.9717, -26.17586, 3.396075, 0.006886, 0.005202, 2.98138, 18.70275, -244.9352, 5.155361, 0.086631, 5.155361, 0.086631, -239.9999, -240, 146.2251, 0.150474, 0.194225, 193.1832, 183.0549, 0.001552, -0.047027, -14.00331, 1126.31, 
-0.007828, -0.031754, 0, 0, 0, 0, 0.589853, 0, 0, 0, 0, 0, 0, 0, 63.99183, -22.60543, 146.2255, 0.085065, 5.159081, 179.9686, -25.8606, 3.434313, 0.006889, 0.0057, 3.023579, 18.69495, -244.943, 5.158742, 0.085211, 5.158742, 0.085211, -239.9999, -240, 146.2255, 0.15678, 0.212004, 193.1801, 182.1904, 0.003163, -0.045272, -13.62663, 1148.985, 
-0.007828, -0.031754, 0, 0, 0, 0, 0.589853, 0, 0, 0, 0, 0, 0, 0, 63.99183, -22.60543, 146.2258, 0.083778, 5.162137, 179.9654, -25.53349, 3.47158, 0.006902, 0.006203, 3.065876, 18.68783, -244.9501, 5.161813, 0.083908, 5.161813, 0.083908, -239.9999, -240, 146.2258, 0.163225, 0.225724, 193.177, 181.4314, 0.004798, -0.043805, -10.07777, 1168.972, 
-0.007828, -0.031754, 0, 0, 0, 0, 0.605478, 0, 0, 0, 0, 0, 0, 0, 63.99183, -22.60543, 146.2262, 0.082426, 5.165424, 179.9613, -25.19496, 3.51629, 0.006951, 0.006826, 3.114426, 18.68002, -244.9579, 5.165109, 0.082528, 5.165109, 0.082528, -239.9999, -240, 146.2262, 0.171029, 0.239645, 193.173, 180.6405, 0.005811, -0.04236, -9.682403, 1189.902, 
-0.007828, -0.031754, 0, 0, 0, 0, 0.613291, 0, 0, 0, 0, 0, 0, 0, 63.99183, -22.60543, 146.2267, 0.080973, 5.168918, 179.9564, -24.81446, 3.568348, 0.006912, 0.007455, 3.172247, 18.67147, -244.9665, 5.168618, 0.081099, 5.168618, 0.081099, -239.9999, -240, 146.2267, 0.180451, 0.27537, 193.1681, 179.8284, 0.006308, -0.040976, -13.81876, 1211.714, 
-0.007828, -0.031754, 0, 0, 0, 0, 0.621103, 0, 0, 0, 0, 0, 0, 0, 63.99183, -22.60543, 146.2271, 0.079845, 5.171815, 179.9519, -24.44686, 3.614268, 0.006927, 0.008072, 3.222779, 18.66447, -244.9735, 5.171528, 0.079967, 5.171528, 0.079967, -239.9999, -240, 146.2271, 0.189255, 0.288755, 193.1636, 179.1783, 0.007125, -0.039908, -20.78713, 1229.646, 
-0.007828, -0.031754, 0, 0, 0, 0, 0.636728, 0, 0, 0, 0, 0, 0, 0, 63.99183, -22.60543, 146.2277, 0.078404, 5.175181, 179.9456, -24.05348, 3.673428, 0.006894, 0.008782, 3.287682, 18.65602, -244.9819, 5.174904, 0.07853, 5.174904, 0.07853, -239.9999, -240, 146.2277, 0.200694, 0.327801, 193.1574, 178.4542, 0.008554, -0.038862, -10.65472, 1250.273, 
-0.007828, -0.031754, 0, 0, 0, 0, 0.664073, 0, 0, 0, 0, 0, 0, 0, 63.99183, -22.60543, 146.2282, 0.077127, 5.178229, 179.9392, -23.65875, 3.730629, 0.006898, 0.009517, 3.349934, 18.64845, -244.9895, 5.177961, 0.07728, 5.177961, 0.07728, -239.9999, -240, 146.2282, 0.212295, 0.353933, 193.1511, 177.8289, 0.009627, -0.038054, -9.576578, 1268.917, 
-0.007828, -0.031754, 0, 0, 0, 0, 0.68751, 0, 0, 0, 0, 0, 0, 0, 63.99183, -22.60543, 146.2288, 0.076099, 5.180981, 179.9325, -23.24799, 3.784632, 0.00693, 0.010268, 3.410408, 18.64153, -244.9964, 5.180722, 0.076178, 5.180722, 0.076178, -239.9999, -240, 146.2288, 0.223846, 0.364801, 193.1445, 177.2925, 0.011117, -0.037476, -16.80418, 1286.159, 
-0.007828, -0.031754, 0, 0, 0, 0, 0.703136, 0, 0, 0, 0, 0, 0, 0, 63.99183, -22.60543, 146.2294, 0.074905, 5.183967, 179.9244, -22.83734, 3.847963, 0.006929, 0.011074, 3.479174, 18.63395, -245.004, 5.183712, 0.074985, 5.183712, 0.074985, -239.9999, -240, 146.2294, 0.237489, 0.395763, 193.1364, 176.7477, 0.01335, -0.037006, -16.05419, 1305.725, 
-0.007828, -0.031754, 0, 0, 0, 0, 0.722667, 0, 0, 0, 0, 0, 0, 0, 63.99183, -22.60543, 146.2301, 0.073658, 5.186975, 179.9154, -22.42696, 3.914999, 0.006932, 0.011928, 3.551724, 18.62642, -245.0115, 5.186722, 0.073736, 5.186722, 0.073736, -249.9999, -250, 146.2301, 0.252266, 0.431992, 193.1275, 176.2453, 0.014448, -0.036706, -13.33751, 1326.264, 
